,location_id,location,latitude,longitude
0,8039,Mumbai,19.07283,72.88261
1,8118,Delhi,28.63576,77.22445
2,8172,Kolkata,22.56263,88.36304
3,8557,Hyderabad,17.38405,78.45636
4,8558,Chennai,13.08784,80.27847
